{
"type": "FeatureCollection",
"name": "montco_breweries",
"crs": { "type": "name", "properties": { "name": "urn:ogc:def:crs:OGC:1.3:CRS84" } },
"features": [
{ "type": "Feature", "properties": { "name": "Ambler Beer Co", "address": "300 Brookside Ave #19E", "city": " Ambler PA", "website": " www.amblerbeerco.com", "phone": " (215)660-9560" }, "geometry": { "type": "MultiPoint", "coordinates": [ [ -75.2341, 40.1616 ] ] } },
{ "type": "Feature", "properties": { "name": "Bingham Brewing", "address": "12 East Butler Avenue #110", "city": " Ambler PA", "website": "", "phone": " (215)654-5330" }, "geometry": { "type": "MultiPoint", "coordinates": [ [ -75.22123, 40.15481 ] ] } },
{ "type": "Feature", "properties": { "name": "Flatiron Brewing", "address": "625 Woodbrook Dr", "city": " Ambler PA", "website": "", "phone": " (215)641-0645" }, "geometry": { "type": "MultiPoint", "coordinates": [ [ -75.19573, 40.19257 ] ] } },
{ "type": "Feature", "properties": { "name": "Forest & Main Brewery and Pub", "address": "61 North Main St", "city": " Ambler PA", "website": " www.forestandmain.com/", "phone": " (215)542-1776" }, "geometry": { "type": "MultiPoint", "coordinates": [ [ -75.22506, 40.15533 ] ] } },
{ "type": "Feature", "properties": { "name": "Forest & Main Brewery & Pub", "address": "33 East Butler Ave", "city": " Ambler PA", "website": " www.forestandmain.com/", "phone": " " }, "geometry": { "type": "MultiPoint", "coordinates": [ [ -75.22297, 40.15429 ] ] } },
{ "type": "Feature", "properties": { "name": "Tannery Run Brew Works", "address": "131 East Butler Ave", "city": " Ambler PA", "website": " www.tanneryrun.com", "phone": " (215)613-1113" }, "geometry": { "type": "MultiPoint", "coordinates": [ [ -75.22097, 40.1552 ] ] } },
{ "type": "Feature", "properties": { "name": "Well Crafted Beer Co", "address": "300 Brookside Ave Bldg 19 #E", "city": " Ambler PA", "website": " www.wellcraftedbeer.com", "phone": " " }, "geometry": { "type": "MultiPoint", "coordinates": [ [ -75.23244, 40.16094 ] ] } },
{ "type": "Feature", "properties": { "name": "Iron Hill Brewery & Restaurant", "address": "60 Greenfield Ave", "city": " Ardmore PA", "website": " www.ironhillbrewery.com/ardmore/", "phone": " (610)228-2280" }, "geometry": { "type": "MultiPoint", "coordinates": [ [ -75.29753, 40.00846 ] ] } },
{ "type": "Feature", "properties": { "name": "Tired Hands Brewing", "address": "16 Ardmore Ave", "city": " Ardmore PA", "website": " www.tiredhands.com/", "phone": " (610)896-7621" }, "geometry": { "type": "MultiPoint", "coordinates": [ [ -75.29365, 40.00859 ] ] } },
{ "type": "Feature", "properties": { "name": "Bald Birds Brewing", "address": "970 Rittenhouse Rd", "city": " Audubon PA", "website": " www.baldbirdsbrewing.com", "phone": " (484)392-7068" }, "geometry": { "type": "MultiPoint", "coordinates": [ [ -75.41652, 40.1266 ] ] } },
{ "type": "Feature", "properties": { "name": "Tin Lizard Brewing", "address": "1000 West Lancaster Ave", "city": " Bryn Mawr PA", "website": " www.tinlizardbrewingco.com", "phone": " (610)525-1100" }, "geometry": { "type": "MultiPoint", "coordinates": [ [ -75.32285, 40.02347 ] ] } },
{ "type": "Feature", "properties": { "name": "Appalachian Brewing ï¿½ Collegeville", "address": "50 West Third Ave", "city": " Collegeville PA", "website": "", "phone": "" }, "geometry": { "type": "MultiPoint", "coordinates": [ [ -75.47308, 40.19454 ] ] } },
{ "type": "Feature", "properties": { "name": "Trouble's End Brewing", "address": "50 West Third Ave", "city": " Collegeville PA", "website": " www.troublesendbrewing.com", "phone": " (484)902-8076" }, "geometry": { "type": "MultiPoint", "coordinates": [ [ -75.45241, 40.18556 ] ] } },
{ "type": "Feature", "properties": { "name": "Conshohocken Brewing Co", "address": "739-B East Elm St", "city": " Conshohocken PA", "website": " www.conshohockenbrewing.com", "phone": " (610)897-8962" }, "geometry": { "type": "MultiPoint", "coordinates": [ [ -75.29244, 40.07374 ] ] } },
{ "type": "Feature", "properties": { "name": "Intercourse Brewing Co", "address": "4166 Ironbridge Dr", "city": " Creamery PA", "website": " intercoursebrewingcompany.com", "phone": " (610)812-9426" }, "geometry": { "type": "MultiPoint", "coordinates": [ [ -75.44357, 40.20607 ] ] } },
{ "type": "Feature", "properties": { "name": "Track 3 Microbrewery & Coffee House", "address": "1650 Limekiln Pike", "city": " Dresher PA", "website": " www.track3brewing.com/", "phone": " (267)419-8654" }, "geometry": { "type": "MultiPoint", "coordinates": [ [ -75.16745, 40.14538 ] ] } },
{ "type": "Feature", "properties": { "name": "Simple Days Beer", "address": "226 Main St", "city": " East Greenville PA", "website": " www.simpledaysbeer.com/", "phone": " " }, "geometry": { "type": "MultiPoint", "coordinates": [ [ -75.50123, 40.40459 ] ] } },
{ "type": "Feature", "properties": { "name": "Sunset Hill Brewing Co", "address": "2782 Leidy Rd", "city": " Gilbertville PA", "website": " www.sunsethillbrewingco.com/", "phone": " (610)492-1888" }, "geometry": { "type": "MultiPoint", "coordinates": [ [ -75.58521, 40.29209 ] ] } },
{ "type": "Feature", "properties": { "name": "Dock Street Brewing Company", "address": "Gladwyne PA", "city": " (610)642-2699", "website": "", "phone": "" }, "geometry": { "type": "MultiPoint", "coordinates": [ [ -75.27609, 40.03781 ] ] } },
{ "type": "Feature", "properties": { "name": "Bill's Best", "address": "57 South Keswick Ave", "city": " Glenside PA", "website": " billsbestbbq.com/", "phone": " (215)517-6970" }, "geometry": { "type": "MultiPoint", "coordinates": [ [ -75.14914, 40.09974 ] ] } },
{ "type": "Feature", "properties": { "name": "GG Brewers", "address": "282 N Keswick Ave", "city": " Glenside PA", "website": "", "phone": " (215)887-0809" }, "geometry": { "type": "MultiPoint", "coordinates": [ [ -75.14726, 40.10613 ] ] } },
{ "type": "Feature", "properties": { "name": "The Ways Restaurant and Brewery", "address": "11 South Easton Rd", "city": " Glenside PA", "website": " thewaysrestaurantandbrewery.com/", "phone": " (215)887-1029" }, "geometry": { "type": "MultiPoint", "coordinates": [ [ -75.15279, 40.09991 ] ] } },
{ "type": "Feature", "properties": { "name": "Perkiomen Valley Brewery", "address": "101 Walnut St", "city": " Green Lane PA", "website": " www.perkiomenvalleybrewery.com", "phone": " (215)872-6424" }, "geometry": { "type": "MultiPoint", "coordinates": [ [ -75.47166, 40.33818 ] ] } },
{ "type": "Feature", "properties": { "name": "Blueprint Brewing", "address": "1571 Gehman Rd", "city": " Harleysville PA", "website": " www.blueprintbrewco.com", "phone": " (267)649-7006" }, "geometry": { "type": "MultiPoint", "coordinates": [ [ -75.34574, 40.25491 ] ] } },
{ "type": "Feature", "properties": { "name": "Artifact Brewing", "address": "2 South York Rd", "city": " Hatboro PA", "website": " www.artifactales.com", "phone": " " }, "geometry": { "type": "MultiPoint", "coordinates": [ [ -75.10661, 40.1772 ] ] } },
{ "type": "Feature", "properties": { "name": "Crooked Eye Brewery", "address": "13 East Montgomery Ave #2", "city": " Hatboro PA", "website": " www.crookedeyebrewery.com", "phone": " (267)803-6925" }, "geometry": { "type": "MultiPoint", "coordinates": [ [ -75.10492, 40.17924 ] ] } },
{ "type": "Feature", "properties": { "name": "Co-Hops Brewery & Cannery", "address": "2262 North Penn Rd", "city": " Hatfield PA", "website": " www.cohopsbeer.com/", "phone": " (267)903-7303" }, "geometry": { "type": "MultiPoint", "coordinates": [ [ -75.28349, 40.28885 ] ] } },
{ "type": "Feature", "properties": { "name": "Imprint Beer Co", "address": "1500-O Industry Rd", "city": " Hatfield PA", "website": " ", "phone": " (215)285-8254 or (267)640-3004" }, "geometry": { "type": "MultiPoint", "coordinates": [ [ -75.28386, 40.26386 ] ] } },
{ "type": "Feature", "properties": { "name": "Big Chief Brewing", "address": "193 Easton Road", "city": " Horsham PA", "website": " bigchiefbrewing.com/", "phone": " (609)367-3833" }, "geometry": { "type": "MultiPoint", "coordinates": [ [ -75.1283, 40.17434 ] ] } },
{ "type": "Feature", "properties": { "name": "Iron Hill Brewery & Rest", "address": "785 Huntingdon Pike", "city": " Huntingdon Valley PA", "website": " www.ironhillbrewery.com", "phone": " (610)602-9255" }, "geometry": { "type": "MultiPoint", "coordinates": [ [ -75.09378, 40.08846 ] ] } },
{ "type": "Feature", "properties": { "name": "Guild Hall Brewing", "address": "208 York Rd", "city": " Jenkintown PA", "website": " www.guildhallbrewing.com", "phone": " (267)287-8698" }, "geometry": { "type": "MultiPoint", "coordinates": [ [ -75.12556, 40.09451 ] ] } },
{ "type": "Feature", "properties": { "name": "Human Robot Brewing", "address": "208 York Rd", "city": " Jenkintown PA", "website": " www.humanrobotbeer.com/", "phone": " " }, "geometry": { "type": "MultiPoint", "coordinates": [ [ -75.12524, 40.09458 ] ] } },
{ "type": "Feature", "properties": { "name": "Neshaminy Creek Brewing Co", "address": "208 York Rd", "city": " Jenkintown PA", "website": " www.boroughbrewhouse.com/", "phone": " (267)636-5858" }, "geometry": { "type": "MultiPoint", "coordinates": [ [ -75.12524, 40.09458 ] ] } },
{ "type": "Feature", "properties": { "name": "Rock Bottom Restaurant & Brewery", "address": "1001 King of Prussia Plaza", "city": " King of Prussia PA", "website": "", "phone": " (610)230-2739" }, "geometry": { "type": "MultiPoint", "coordinates": [ [ -75.38806, 40.08781 ] ] } },
{ "type": "Feature", "properties": { "name": "Workhorse Brewing", "address": "250 King Manor Rd", "city": " King of Prussia PA", "website": " www.workhorsebrewing.com", "phone": " (484)997-8278" }, "geometry": { "type": "MultiPoint", "coordinates": [ [ -75.35023, 40.09153 ] ] } },
{ "type": "Feature", "properties": { "name": "General Lafayette Inn & Brewery", "address": "646 Germantown Pike", "city": " Lafayette Hill PA", "website": "", "phone": " (610)941-0600" }, "geometry": { "type": "MultiPoint", "coordinates": [ [ -75.25999, 40.09171 ] ] } },
{ "type": "Feature", "properties": { "name": "Prism Beer Co", "address": "646 Germantown Pike", "city": " Lafayette Hill PA", "website": " www.prismbeer.com/", "phone": " (215)627-6465" }, "geometry": { "type": "MultiPoint", "coordinates": [ [ -75.25999, 40.09171 ] ] } },
{ "type": "Feature", "properties": { "name": "Round Guys Brewing", "address": "324 West Main St", "city": " Lansdale PA", "website": " www.roundguysbrewery.com/", "phone": " (215)368-2640" }, "geometry": { "type": "MultiPoint", "coordinates": [ [ -75.28732, 40.24369 ] ] } },
{ "type": "Feature", "properties": { "name": "Well Crafted Beer Co", "address": "310 North Madison St", "city": " Lansdale PA", "website": " www.wellcraftedbeer.com", "phone": " (267)263-2777" }, "geometry": { "type": "MultiPoint", "coordinates": [ [ -75.28624, 40.24359 ] ] } },
{ "type": "Feature", "properties": { "name": "Rebel Hill Brewing ï¿½ Lock 29", "address": "127 Bridge St", "city": " Mont Clare PA", "website": " www.rebelhillbrewing.com/", "phone": " (484)924-8044" }, "geometry": { "type": "MultiPoint", "coordinates": [ [ -75.50742, 40.13608 ] ] } },
{ "type": "Feature", "properties": { "name": "Prism Beer Company", "address": "2995 Brambling Lane", "city": " Norristown PA", "website": " ", "phone": " (866)424-9681" }, "geometry": { "type": "MultiPoint", "coordinates": [ [ -75.36201, 40.15923 ] ] } },
{ "type": "Feature", "properties": { "name": "von C Brewing Co", "address": "1210 Stanbridge St", "city": " Norristown PA", "website": " voncbrewing.com/", "phone": "" }, "geometry": { "type": "MultiPoint", "coordinates": [ [ -75.34504, 40.12973 ] ] } },
{ "type": "Feature", "properties": { "name": "Iron Hill Brewery", "address": "1460 Bethlehem Pike", "city": " North Wales PA", "website": "", "phone": " (267)708-2000" }, "geometry": { "type": "MultiPoint", "coordinates": [ [ -75.22466, 40.20681 ] ] } },
{ "type": "Feature", "properties": { "name": "McAllister Brewing", "address": "810 Dickerson Rd", "city": " North Wales PA", "website": " www.misterbrewing.com", "phone": " (267)655-4918" }, "geometry": { "type": "MultiPoint", "coordinates": [ [ -75.2794, 40.22029 ] ] } },
{ "type": "Feature", "properties": { "name": "Prism Brewing Co", "address": "810 Dickerson Rd", "city": " North Wales PA", "website": " www.prismbeer.com/", "phone": " (267)613-8572" }, "geometry": { "type": "MultiPoint", "coordinates": [ [ -75.27952, 40.22029 ] ] } },
{ "type": "Feature", "properties": { "name": "Ten 7 Brewing", "address": "510 Beaver St", "city": " North Wales PA", "website": " www.ten7brewing.com", "phone": " (717)710-2739" }, "geometry": { "type": "MultiPoint", "coordinates": [ [ -75.27666, 40.21595 ] ] } },
{ "type": "Feature", "properties": { "name": "Iron Hill Brewery & Restaurant", "address": "130 East Bridge Road", "city": " Phoenixville PA", "website": "", "phone": " (610)983-9333" }, "geometry": { "type": "MultiPoint", "coordinates": [ [ -75.50801, 40.13564 ] ] } },
{ "type": "Feature", "properties": { "name": "JJ Ratigan Brewing Co", "address": "227 East High St", "city": " Pottstown PA", "website": " www.jjratiganbrewing.com", "phone": " (484)524-8391" }, "geometry": { "type": "MultiPoint", "coordinates": [ [ -75.64963, 40.24537 ] ] } },
{ "type": "Feature", "properties": { "name": "Sly Fox Brewing", "address": "331 Circle of Progress Dr", "city": " Pottstown PA", "website": " www.slyfoxbeer.com/", "phone": " (484)524-8210" }, "geometry": { "type": "MultiPoint", "coordinates": [ [ -75.66707, 40.26301 ] ] } },
{ "type": "Feature", "properties": { "name": "Lost Planet Brewing", "address": "301 Walnut St", "city": " Royersford PA", "website": " ", "phone": " " }, "geometry": { "type": "MultiPoint", "coordinates": [ [ -75.53979, 40.18338 ] ] } },
{ "type": "Feature", "properties": { "name": "Royersford Brewing Co", "address": "519 Main St", "city": " Royersford PA", "website": " www.royersfordbrew.com/", "phone": " " }, "geometry": { "type": "MultiPoint", "coordinates": [ [ -75.55865, 40.21473 ] ] } },
{ "type": "Feature", "properties": { "name": "Stickman Brews", "address": "326 North Lewis Rd #240", "city": " Royersford PA", "website": " www.stickmanbrews.com", "phone": " (484)938-5900" }, "geometry": { "type": "MultiPoint", "coordinates": [ [ -75.53399, 40.19585 ] ] } },
{ "type": "Feature", "properties": { "name": "Stable 12 Brewing", "address": "4870 Skippack Pike", "city": " Schwenksville PA", "website": " www.stable12.com", "phone": " " }, "geometry": { "type": "MultiPoint", "coordinates": [ [ -75.448, 40.24185 ] ] } },
{ "type": "Feature", "properties": { "name": "Brothers Kershner Brewing", "address": "4119 West Skippack Pike", "city": " Skippack PA", "website": " www.brokerbrewing.com", "phone": " (610)304-0822" }, "geometry": { "type": "MultiPoint", "coordinates": [ [ -75.40447, 40.22805 ] ] } }
]
}
